{"type":"FeatureCollection","features":[{"type":"Feature","properties":{"name":"Cosmos","latitude":"33.82639288018723","longitude":"-116.75463598973495","grade":"10"},"geometry":{"type":"Point","coordinates":[-116.754636,33.826393]}},{"type":"Feature","properties":{"name":"Chumscrubber","latitude":"37.583188221286825","longitude":"-118.99575770160726","grade":"11"},"geometry":{"type":"Point","coordinates":[-118.995758,37.583188]}},{"type":"Feature","properties":{"name":"Witches Gathering","latitude":"41.03180618301638","longitude":"-124.11177522763073","grade":"10"},"geometry":{"type":"Point","coordinates":[-124.111775,41.031806]}},{"type":"Feature","properties":{"name":"Death Sentence","latitude":"39.12692091725163","longitude":"-119.72132567671702","grade":"10"},"geometry":{"type":"Point","coordinates":[-119.721326,39.126921]}},{"type":"Feature","properties":{"name":"Grotesque Old Woman","latitude":"34.71474508411243","longitude":"-119.7928196714638","grade":"10"},"geometry":{"type":"Point","coordinates":[-119.79282,34.714745]}}]}
